{
    "RoutingBenchmarkSettings": {
        "RoutingProbes": [
            {"HomeLocation" : "Le TEC 82 HAVRE Hameau du Pir", "HomeLongitude" : 4.0515541, "HomeLatitude" : 50.4661093, "WorkLocation" : "Le TEC 82 MONS SNCB","WorkLongitude" : 3.9439012, "WorkLatitude" : 50.4535666, "TransportSequence" : ["Public Transport"]},
            {"HomeLocation" : "Le TEC 82 HAVRE Hameau du Pir", "HomeLongitude" : 4.0515541, "HomeLatitude" : 50.4661093, "WorkLocation" : "Le TEC 82 MONS SNCB","WorkLongitude" : 3.9439012, "WorkLatitude" : 50.4535666, "TransportSequence" : ["Bus"]},
            {"HomeLocation" : "Le TEC 82 HAVRE Hameau du Pir", "HomeLongitude" : 4.0515541, "HomeLatitude" : 50.4661093, "WorkLocation" : "Le TEC 82 MONS SNCB","WorkLongitude" : 3.9439012, "WorkLatitude" : 50.4535666, "TransportSequence" : ["Car"]},
            {"HomeLocation" : "Le TEC A NAMUR Gare des autobus", "HomeLongitude" : 4.8625933, "HomeLatitude" : 50.4687136, "WorkLocation" : "Le TEC A NAMUR Rue Major Delcourt","WorkLongitude" : 4.8911596, "WorkLatitude" : 50.4511254, "TransportSequence" : ["Public Transport"]},
            {"HomeLocation" : "Le TEC A NAMUR Gare des autobus", "HomeLongitude" : 4.8625933, "HomeLatitude" : 50.4687136, "WorkLocation" : "Le TEC A NAMUR Rue Major Delcourt","WorkLongitude" : 4.8911596, "WorkLatitude" : 50.4511254, "TransportSequence" : ["Bus"]},
            {"HomeLocation" : "Le TEC A NAMUR Gare des autobus", "HomeLongitude" : 4.8625933, "HomeLatitude" : 50.4687136, "WorkLocation" : "Le TEC A NAMUR Rue Major Delcourt","WorkLongitude" : 4.8911596, "WorkLatitude" : 50.4511254, "TransportSequence" : ["Car"]},
            {"HomeLocation" : "Le TEC 1 LIEGE Gare des Guillemins", "HomeLongitude" : 5.5673147, "HomeLatitude" : 50.6244984, "WorkLocation" : "Le TEC 1 LIEGE Pont d'Avroy","WorkLongitude" :  5.5696604, "WorkLatitude" : 50.6402130, "TransportSequence" : ["Public Transport"]},
            {"HomeLocation" : "Le TEC 1 LIEGE Gare des Guillemins", "HomeLongitude" : 5.5673147, "HomeLatitude" : 50.6244984, "WorkLocation" : "Le TEC 1 LIEGE Pont d'Avroy","WorkLongitude" :  5.5696604, "WorkLatitude" : 50.6402130, "TransportSequence" : ["Bus"]},
            {"HomeLocation" : "Le TEC 1 LIEGE Gare des Guillemins", "HomeLongitude" : 5.5673147, "HomeLatitude" : 50.6244984, "WorkLocation" : "Le TEC 1 LIEGE Pont d'Avroy","WorkLongitude" :  5.5696604, "WorkLatitude" : 50.6402130, "TransportSequence" : ["Car"]},
            {"HomeLocation" : "Le TEC 109a CHARLEROI Gare Centrale", "HomeLongitude" : 4.4363591, "HomeLatitude" : 50.4053103, "WorkLocation" : "Le TEC 109a MONTIGNY-LE-TILLEUL Chemin de la Place","WorkLongitude" : 4.3745411, "WorkLatitude" : 50.3807433, "TransportSequence" : ["Public Transport"]},
            {"HomeLocation" : "Le TEC 109a CHARLEROI Gare Centrale", "HomeLongitude" : 4.4363591, "HomeLatitude" : 50.4053103, "WorkLocation" : "Le TEC 109a MONTIGNY-LE-TILLEUL Chemin de la Place","WorkLongitude" : 4.3745411, "WorkLatitude" : 50.3807433, "TransportSequence" : ["Bus"]},
            {"HomeLocation" : "Le TEC 109a CHARLEROI Gare Centrale", "HomeLongitude" : 4.4363591, "HomeLatitude" : 50.4053103, "WorkLocation" : "Le TEC 109a MONTIGNY-LE-TILLEUL Chemin de la Place","WorkLongitude" : 4.3745411, "WorkLatitude" : 50.3807433, "TransportSequence" : ["Car"]}
        ],
        "AdditionalProbes": 0,
        "DefaultBenchmarkSequence": ["Car","Public Transport"]
    }
}
